[
    {
        "id": 1,
        "line": "Linea_12",
        "direction": "IDA",
        "name": "CENMA",
        "lat": 14.5642837,
        "lon": -90.5636148
    },
    {
        "id": 2,
        "line": "Linea_12",
        "direction": "IDA",
        "name": "MONTE MARÍA",
        "lat": 14.5802973,
        "lon": -90.5680511
    },
    {
        "id": 3,
        "line": "Linea_12",
        "direction": "IDA",
        "name": "JAVIER",
        "lat": 14.5871742,
        "lon": -90.5625497
    },
    {
        "id": 4,
        "line": "Linea_12",
        "direction": "IDA",
        "name": "LAS CHARCAS DIRECCIÓN CENTRO",
        "lat": 14.5924359,
        "lon": -90.5589796
    },
    {
        "id": 5,
        "line": "Linea_12",
        "direction": "IDA",
        "name": "EL CARMEN",
        "lat": 14.5962179,
        "lon": -90.5554337
    },
    {
        "id": 6,
        "line": "Linea_12",
        "direction": "IDA",
        "name": "REFORMITA DIRECCIÓN CENTRO",
        "lat": 14.6010487,
        "lon": -90.5495208
    },
    {
        "id": 7,
        "line": "Linea_12",
        "direction": "IDA",
        "name": "MARISCAL DIRECCIÓN CENTRO",
        "lat": 14.6046432,
        "lon": -90.5451028
    },
    {
        "id": 8,
        "line": "Linea_12",
        "direction": "IDA",
        "name": "TRÉBOL DIRECCIÓN CENTRO",
        "lat": 14.6125134,
        "lon": -90.5354015
    },
    {
        "id": 9,
        "line": "Linea_12",
        "direction": "IDA",
        "name": "SANTA CECILIA",
        "lat": 14.6144158,
        "lon": -90.5331864
    },
    {
        "id": 10,
        "line": "Linea_12",
        "direction": "IDA",
        "name": "BOLÍVAR DIRECCIÓN CENTRO",
        "lat": 14.6190216,
        "lon": -90.5277963
    },
    {
        "id": 11,
        "line": "Linea_12",
        "direction": "IDA",
        "name": "DON BOSCO",
        "lat": 14.6250668,
        "lon": -90.5221733
    },
    {
        "id": 12,
        "line": "Linea_12",
        "direction": "IDA",
        "name": "PLAZA MUNICIPAL",
        "lat": 14.6276037,
        "lon": -90.5158997
    },
    {
        "id": 13,
        "line": "Linea_12",
        "direction": "VUELTA",
        "name": "PLAZA BARRIOS",
        "lat": 14.6301514,
        "lon": -90.5123459
    },
    {
        "id": 14,
        "line": "Linea_12",
        "direction": "VUELTA",
        "name": "EL AMATE",
        "lat": 14.6309962,
        "lon": -90.51593
    },
    {
        "id": 15,
        "line": "Linea_12",
        "direction": "VUELTA",
        "name": "DON BOSCO",
        "lat": 14.6250668,
        "lon": -90.5221733
    },
    {
        "id": 16,
        "line": "Linea_12",
        "direction": "VUELTA",
        "name": "BOLÍVAR DIRECCIÓN CENMA",
        "lat": 14.6198123,
        "lon": -90.5272346
    },
    {
        "id": 17,
        "line": "Linea_12",
        "direction": "VUELTA",
        "name": "SANTA CECILIA",
        "lat": 14.6146223,
        "lon": -90.5332537
    },
    {
        "id": 18,
        "line": "Linea_12",
        "direction": "VUELTA",
        "name": "TRÉBOL",
        "lat": 14.6128939,
        "lon": -90.5358577
    },
    {
        "id": 19,
        "line": "Linea_12",
        "direction": "VUELTA",
        "name": "MARISCAL DIRECCIÓN CENMA",
        "lat": 14.6056459,
        "lon": -90.544232
    },
    {
        "id": 20,
        "line": "Linea_12",
        "direction": "VUELTA",
        "name": "REFORMITA DIRECCIÓN CENMA",
        "lat": 14.6021976,
        "lon": -90.548344
    },
    {
        "id": 21,
        "line": "Linea_12",
        "direction": "VUELTA",
        "name": "EL CARMEN",
        "lat": 14.5962401,
        "lon": -90.5557393
    },
    {
        "id": 22,
        "line": "Linea_12",
        "direction": "VUELTA",
        "name": "LAS CHARCAS DIRECCIÓN CENMA",
        "lat": 14.593499,
        "lon": -90.5585074
    },
    {
        "id": 23,
        "line": "Linea_12",
        "direction": "VUELTA",
        "name": "JAVIER",
        "lat": 14.5878192,
        "lon": -90.5622911
    },
    {
        "id": 24,
        "line": "Linea_12",
        "direction": "VUELTA",
        "name": "MONTE MARÍA",
        "lat": 14.5809333,
        "lon": -90.5678728
    },
    {
        "id": 26,
        "line": "Linea_13-A",
        "direction": "IDA",
        "name": "HANGARES",
        "lat": 14.5801158,
        "lon": -90.5244182
    },
    {
        "id": 27,
        "line": "Linea_13-A",
        "direction": "IDA",
        "name": "PLAZA ARGENTINA",
        "lat": 14.5858629,
        "lon": -90.5224916
    },
    {
        "id": 28,
        "line": "Linea_13-A",
        "direction": "IDA",
        "name": "LOS ARCOS",
        "lat": 14.5919717,
        "lon": -90.5207922
    },
    {
        "id": 29,
        "line": "Linea_13-A",
        "direction": "IDA",
        "name": "PLAZA ESPAÑA",
        "lat": 14.599847627716612,
        "lon": -90.519064845914
    },
    {
        "id": 30,
        "line": "Linea_13-A",
        "direction": "IDA",
        "name": "IGSS ZONA 9",
        "lat": 14.604083281315134,
        "lon": -90.51825750125172
    },
    {
        "id": 31,
        "line": "Linea_13-A",
        "direction": "IDA",
        "name": "SEIS 26",
        "lat": 14.60916462294658,
        "lon": -90.51730141053214
    },
    {
        "id": 32,
        "line": "Linea_13-A",
        "direction": "IDA",
        "name": "TORRE DEL REFORMADOR",
        "lat": 14.614274798244406,
        "lon": -90.51633246544588
    },
    {
        "id": 33,
        "line": "Linea_13-A",
        "direction": "IDA",
        "name": "PLAZA DE LA REPÚBLICA",
        "lat": 14.61958352879294,
        "lon": -90.51548009310144
    },
    {
        "id": 34,
        "line": "Linea_13-A",
        "direction": "IDA",
        "name": "CANTÓN EXPOSICIÓN",
        "lat": 14.622131826929254,
        "lon": -90.5151256896738
    },
    {
        "id": 35,
        "line": "Linea_13-A",
        "direction": "IDA",
        "name": "BANCO DE GUATEMALA",
        "lat": 14.6261342,
        "lon": -90.5146056
    },
    {
        "id": 36,
        "line": "Linea_13-A",
        "direction": "IDA",
        "name": "TIPOGRAFÍA",
        "lat": 14.6308254,
        "lon": -90.5143809
    },
    {
        "id": 37,
        "line": "Linea_13-A",
        "direction": "VUELTA",
        "name": "EL CALVARIO",
        "lat": 14.6302745,
        "lon": -90.5156298
    },
    {
        "id": 38,
        "line": "Linea_13-A",
        "direction": "VUELTA",
        "name": "4 GRADOS SUR",
        "lat": 14.62441660040141,
        "lon": -90.51642651659728
    },
    {
        "id": 39,
        "line": "Linea_13-A",
        "direction": "VUELTA",
        "name": "EXPOSICIÓN",
        "lat": 14.619349993286606,
        "lon": -90.51721274561804
    },
    {
        "id": 40,
        "line": "Linea_13-A",
        "direction": "VUELTA",
        "name": "TERMINAL",
        "lat": 14.613595389491197,
        "lon": -90.5183540408442
    },
    {
        "id": 41,
        "line": "Linea_13-A",
        "direction": "VUELTA",
        "name": "INDUSTRIA",
        "lat": 14.60944368373746,
        "lon": -90.51913724285389
    },
    {
        "id": 42,
        "line": "Linea_13-A",
        "direction": "VUELTA",
        "name": "TIVOLI",
        "lat": 14.6044096,
        "lon": -90.5200844
    },
    {
        "id": 43,
        "line": "Linea_13-A",
        "direction": "VUELTA",
        "name": "MONTÚFAR",
        "lat": 14.600548706997444,
        "lon": -90.52086346969014
    },
    {
        "id": 44,
        "line": "Linea_13-A",
        "direction": "VUELTA",
        "name": "ACUEDUCTO",
        "lat": 14.5936239,
        "lon": -90.521655
    },
    {
        "id": 45,
        "line": "Linea_13-A",
        "direction": "VUELTA",
        "name": "FUERZA AÉREA",
        "lat": 14.587209469063437,
        "lon": -90.52343087634
    },
    {
        "id": 46,
        "line": "Linea_13-A",
        "direction": "VUELTA",
        "name": "PLAZA ARGENTINA",
        "lat": 14.58587188977215,
        "lon": -90.52261085432154
    },
    {
        "id": 48,
        "line": "Linea_13-B",
        "direction": "VUELTA",
        "name": "PLAZA ARGENTINA",
        "lat": 14.594079,
        "lon": -90.5246427
    },
    {
        "id": 49,
        "line": "Linea_13-B",
        "direction": "VUELTA",
        "name": "PLAZA BERLÍN",
        "lat": 14.5851325,
        "lon": -90.5079164
    },
    {
        "id": 50,
        "line": "Linea_13-B",
        "direction": "IDA",
        "name": "JUAN PABLO II",
        "lat": 14.5867821,
        "lon": -90.502824
    },
    {
        "id": 52,
        "line": "Linea_18-A",
        "direction": "IDA",
        "name": "ATLÁNTIDA",
        "lat": 14.651108454837331,
        "lon": -90.47813829270214
    },
    {
        "id": 53,
        "line": "Linea_18-A",
        "direction": "IDA",
        "name": "VICTORIAS",
        "lat": 14.648333956056549,
        "lon": -90.49358608680652
    },
    {
        "id": 54,
        "line": "Linea_18-A",
        "direction": "IDA",
        "name": "SAN MARTÍN DIRECCIÓN PLAZA BARRIOS",
        "lat": 14.6449016,
        "lon": -90.4964416
    },
    {
        "id": 55,
        "line": "Linea_18-A",
        "direction": "IDA",
        "name": "CAPUCHINAS",
        "lat": 14.638582861754683,
        "lon": -90.50986563032444
    },
    {
        "id": 56,
        "line": "Linea_18-A",
        "direction": "IDA",
        "name": "PLAZA BARRIOS/FEGUA",
        "lat": 14.630593839270492,
        "lon": -90.51202144579791
    },
    {
        "id": 57,
        "line": "Linea_18-A",
        "direction": "IDA",
        "name": "FRANCOS Y MONROY",
        "lat": 14.63265713241105,
        "lon": -90.50939201625091
    },
    {
        "id": 58,
        "line": "Linea_18-A",
        "direction": "VUELTA",
        "name": "COLÓN",
        "lat": 14.6400198,
        "lon": -90.5083851
    },
    {
        "id": 59,
        "line": "Linea_18-A",
        "direction": "VUELTA",
        "name": "CERRO DEL CARMEN",
        "lat": 14.6480612,
        "lon": -90.5049961
    },
    {
        "id": 60,
        "line": "Linea_18-A",
        "direction": "VUELTA",
        "name": "SAN MARTÍN DIRECCIÓN ATLÁNTIDA",
        "lat": 14.645287837243712,
        "lon": -90.49672248175985
    },
    {
        "id": 61,
        "line": "Linea_18-A",
        "direction": "VUELTA",
        "name": "VICTORIAS",
        "lat": 14.64828448622305,
        "lon": -90.49353495499876
    },
    {
        "id": 62,
        "line": "Linea_18-A",
        "direction": "VUELTA",
        "name": "PORTALES",
        "lat": 14.64882752559938,
        "lon": -90.48324682842788
    },
    {
        "id": 64,
        "line": "Linea_18-B",
        "direction": "VUELTA",
        "name": "PARAÍSO",
        "lat": 14.659517460850214,
        "lon": -90.44555584711286
    },
    {
        "id": 65,
        "line": "Linea_18-B",
        "direction": "VUELTA",
        "name": "SAN RAFAEL",
        "lat": 14.654918740375011,
        "lon": -90.45230603568066
    },
    {
        "id": 66,
        "line": "Linea_18-B",
        "direction": "VUELTA",
        "name": "ATLÁNTIDA",
        "lat": 14.6510591,
        "lon": -90.477977
    },
    {
        "id": 67,
        "line": "Linea_18-B",
        "direction": "IDA",
        "name": "SAN RAFAEL",
        "lat": 14.6547984,
        "lon": -90.4522707
    },
    {
        "id": 69,
        "line": "Linea_1",
        "direction": "CIRCULAR",
        "name": "SUR 2",
        "lat": 14.631351132520283,
        "lon": -90.51626080905471
    },
    {
        "id": 70,
        "line": "Linea_1",
        "direction": "CIRCULAR",
        "name": "GÓMEZ CARRILLO",
        "lat": 14.634499,
        "lon": -90.5158391
    },
    {
        "id": 71,
        "line": "Linea_1",
        "direction": "CIRCULAR",
        "name": "SAN AGUSTÍN",
        "lat": 14.6385257,
        "lon": -90.5152952
    },
    {
        "id": 72,
        "line": "Linea_1",
        "direction": "CIRCULAR",
        "name": "PARQUE CENTENARIO",
        "lat": 14.6420826,
        "lon": -90.5148271
    },
    {
        "id": 73,
        "line": "Linea_1",
        "direction": "CIRCULAR",
        "name": "SAN SEBASTIÁN",
        "lat": 14.64580829132514,
        "lon": -90.51310090781152
    },
    {
        "id": 74,
        "line": "Linea_1",
        "direction": "CIRCULAR",
        "name": "MERCADO CENTRAL",
        "lat": 14.6422667,
        "lon": -90.5115307
    },
    {
        "id": 75,
        "line": "Linea_1",
        "direction": "CIRCULAR",
        "name": "CORREOS",
        "lat": 14.6400142,
        "lon": -90.5118491
    },
    {
        "id": 76,
        "line": "Linea_1",
        "direction": "CIRCULAR",
        "name": "BEATAS DE BELÉN",
        "lat": 14.6337307,
        "lon": -90.5127075
    },
    {
        "id": 77,
        "line": "Linea_1",
        "direction": "CIRCULAR",
        "name": "PASEO DE LAS LETRAS",
        "lat": 14.629847282148086,
        "lon": -90.51333722314364
    },
    {
        "id": 78,
        "line": "Linea_1",
        "direction": "CIRCULAR",
        "name": "CENTRO CÍVICO",
        "lat": 14.6277515,
        "lon": -90.5148792
    },
    {
        "id": 79,
        "line": "Linea_2",
        "direction": "VUELTA",
        "name": "HIPÓDROMO DEL NORTE",
        "lat": 14.6595472,
        "lon": -90.5097959
    },
    {
        "id": 80,
        "line": "Linea_2",
        "direction": "VUELTA",
        "name": "SAN JOSÉ DE LA MONTAÑA",
        "lat": 14.6537349,
        "lon": -90.5119838
    },
    {
        "id": 81,
        "line": "Linea_2",
        "direction": "VUELTA",
        "name": "JOCOTENANGO",
        "lat": 14.6509534,
        "lon": -90.5131519
    },
    {
        "id": 82,
        "line": "Linea_2",
        "direction": "IDA",
        "name": "SAN SEBASTIÁN",
        "lat": 14.64580829132514,
        "lon": -90.51310090781152
    },
    {
        "id": 83,
        "line": "Linea_2",
        "direction": "IDA",
        "name": "SIMEÓN CAÑAS",
        "lat": 14.65393884595348,
        "lon": -90.51187727207288
    },
    {
        "id": 85,
        "line": "Linea_6",
        "direction": "IDA",
        "name": "PROYECTOS",
        "lat": 14.6735048,
        "lon": -90.4875095
    },
    {
        "id": 86,
        "line": "Linea_6",
        "direction": "IDA",
        "name": "PROYECTOS 4-4",
        "lat": 14.667541032546389,
        "lon": -90.49209861900012
    },
    {
        "id": 87,
        "line": "Linea_6",
        "direction": "IDA",
        "name": "CIPRESALES",
        "lat": 14.6652573,
        "lon": -90.4939119
    },
    {
        "id": 88,
        "line": "Linea_6",
        "direction": "IDA",
        "name": "QUINTANAL",
        "lat": 14.658553403627154,
        "lon": -90.49600668983766
    },
    {
        "id": 89,
        "line": "Linea_6",
        "direction": "IDA",
        "name": "CORPUS CHRISTI",
        "lat": 14.656029810175088,
        "lon": -90.49725100780572
    },
    {
        "id": 90,
        "line": "Linea_6",
        "direction": "IDA",
        "name": "JOSÉ MARTÍ",
        "lat": 14.6528328,
        "lon": -90.500006
    },
    {
        "id": 91,
        "line": "Linea_6",
        "direction": "IDA",
        "name": "CERRO DEL CARMEN",
        "lat": 14.6480855,
        "lon": -90.5050243
    },
    {
        "id": 92,
        "line": "Linea_6",
        "direction": "IDA",
        "name": "SANTA TERESA",
        "lat": 14.64412668794784,
        "lon": -90.50911969975306
    },
    {
        "id": 93,
        "line": "Linea_6",
        "direction": "IDA",
        "name": "CAPUCHINAS",
        "lat": 14.6385268,
        "lon": -90.5098858
    },
    {
        "id": 94,
        "line": "Linea_6",
        "direction": "IDA",
        "name": "PLAZA BARRIOS/FEGUA",
        "lat": 14.6305421,
        "lon": -90.5116339
    },
    {
        "id": 95,
        "line": "Linea_6",
        "direction": "IDA",
        "name": "FRANCOS Y MONROY",
        "lat": 14.632670560437608,
        "lon": -90.509385845392
    },
    {
        "id": 96,
        "line": "Linea_6",
        "direction": "IDA",
        "name": "COLÓN",
        "lat": 14.6400198,
        "lon": -90.5083851
    },
    {
        "id": 97,
        "line": "Linea_6",
        "direction": "VUELTA",
        "name": "CERRO DEL CARMEN",
        "lat": 14.6480314,
        "lon": -90.5050699
    },
    {
        "id": 98,
        "line": "Linea_6",
        "direction": "VUELTA",
        "name": "PARROQUIA",
        "lat": 14.650008101051093,
        "lon": -90.49982764396792
    },
    {
        "id": 99,
        "line": "Linea_6",
        "direction": "VUELTA",
        "name": "IGSS ZONA 6",
        "lat": 14.651566463810164,
        "lon": -90.4974990544746
    },
    {
        "id": 100,
        "line": "Linea_6",
        "direction": "VUELTA",
        "name": "CENTRO ZONA 6",
        "lat": 14.654893642194688,
        "lon": -90.49609427377524
    },
    {
        "id": 101,
        "line": "Linea_6",
        "direction": "VUELTA",
        "name": "ACADEMIA",
        "lat": 14.6590603,
        "lon": -90.4941159
    },
    {
        "id": 102,
        "line": "Linea_6",
        "direction": "VUELTA",
        "name": "CIPRESALES",
        "lat": 14.6651768,
        "lon": -90.4937913
    },
    {
        "id": 103,
        "line": "Linea_6",
        "direction": "VUELTA",
        "name": "PROYECTOS 4-4",
        "lat": 14.667474426175133,
        "lon": -90.49202569614066
    },
    {
        "id": 105,
        "line": "Linea_7",
        "direction": "IDA",
        "name": "USAC PERIFÉRICO",
        "lat": 14.5932235,
        "lon": -90.5503982
    },
    {
        "id": 106,
        "line": "Linea_7",
        "direction": "IDA",
        "name": "GRANAI DIRECCIÓN LA MERCED",
        "lat": 14.59955417492066,
        "lon": -90.55910841288711
    },
    {
        "id": 107,
        "line": "Linea_7",
        "direction": "IDA",
        "name": "RODOLFO ROBLES DIRECCIÓN LA MERCED",
        "lat": 14.6070383,
        "lon": -90.5583001
    },
    {
        "id": 108,
        "line": "Linea_7",
        "direction": "IDA",
        "name": "CEJUSA DIRECCIÓN LA MERCED",
        "lat": 14.6094872,
        "lon": -90.5565734
    },
    {
        "id": 109,
        "line": "Linea_7",
        "direction": "IDA",
        "name": "SAN JORGE DIRECCIÓN LA MERCED",
        "lat": 14.61836255388798,
        "lon": -90.55578855737708
    },
    {
        "id": 110,
        "line": "Linea_7",
        "direction": "IDA",
        "name": "ROOSEVELT DIRECCIÓN LA MERCED",
        "lat": 14.6261715,
        "lon": -90.5584804
    },
    {
        "id": 111,
        "line": "Linea_7",
        "direction": "IDA",
        "name": "SAN JUAN DIRECCIÓN LA MERCED",
        "lat": 14.630222657053151,
        "lon": -90.55480853184372
    },
    {
        "id": 112,
        "line": "Linea_7",
        "direction": "IDA",
        "name": "CIUDAD DE PLATA II DIRECCIÓN LA MERCED",
        "lat": 14.638365962830008,
        "lon": -90.55060846060842
    },
    {
        "id": 113,
        "line": "Linea_7",
        "direction": "IDA",
        "name": "VILLA LINDA DIRECCIÓN LA MERCED",
        "lat": 14.6414093,
        "lon": -90.5462321
    },
    {
        "id": 114,
        "line": "Linea_7",
        "direction": "IDA",
        "name": "4 DE FEBRERO DIRECCIÓN LA MERCED",
        "lat": 14.644947857863713,
        "lon": -90.53968935313974
    },
    {
        "id": 115,
        "line": "Linea_7",
        "direction": "IDA",
        "name": "BETHANIA DIRECCIÓN LA MERCED",
        "lat": 14.645611942500896,
        "lon": -90.53657413577038
    },
    {
        "id": 116,
        "line": "Linea_7",
        "direction": "IDA",
        "name": "INCIENSO DIRECCIÓN LA MERCED",
        "lat": 14.648743,
        "lon": -90.531087
    },
    {
        "id": 117,
        "line": "Linea_7",
        "direction": "IDA",
        "name": "SAN JUAN DE DIOS",
        "lat": 14.641198270759077,
        "lon": -90.51899581937074
    },
    {
        "id": 118,
        "line": "Linea_7",
        "direction": "IDA",
        "name": "PASAJE AYCINENA",
        "lat": 14.640279020311205,
        "lon": -90.5130996966973
    },
    {
        "id": 119,
        "line": "Linea_7",
        "direction": "IDA",
        "name": "LA MERCED",
        "lat": 14.6435346,
        "lon": -90.5079153
    },
    {
        "id": 120,
        "line": "Linea_7",
        "direction": "IDA",
        "name": "CRUZ ROJA",
        "lat": 14.644200306626535,
        "lon": -90.5109060288606
    },
    {
        "id": 121,
        "line": "Linea_7",
        "direction": "IDA",
        "name": "ARCHIVO GENERAL",
        "lat": 14.6422868,
        "lon": -90.515672
    },
    {
        "id": 122,
        "line": "Linea_7",
        "direction": "IDA",
        "name": "SANTUARIO DE GUADALUPE",
        "lat": 14.6420627,
        "lon": -90.5188586
    },
    {
        "id": 123,
        "line": "Linea_7",
        "direction": "VUELTA",
        "name": "INCIENSO DIRECCIÓN USAC",
        "lat": 14.649011013468773,
        "lon": -90.5308281494062
    },
    {
        "id": 124,
        "line": "Linea_7",
        "direction": "VUELTA",
        "name": "BETHANIA DIRECCIÓN USAC",
        "lat": 14.645825385467845,
        "lon": -90.53688934117712
    },
    {
        "id": 125,
        "line": "Linea_7",
        "direction": "VUELTA",
        "name": "4 DE FEBRERO DIRECCIÓN USAC",
        "lat": 14.644473111233165,
        "lon": -90.54079345444174
    },
    {
        "id": 126,
        "line": "Linea_7",
        "direction": "VUELTA",
        "name": "VILLA LINDA DIRECCIÓN USAC",
        "lat": 14.6421214,
        "lon": -90.5455163
    },
    {
        "id": 127,
        "line": "Linea_7",
        "direction": "VUELTA",
        "name": "CIUDAD DE PLATA DIRECCIÓN USAC",
        "lat": 14.63832032985309,
        "lon": -90.55076727403656
    },
    {
        "id": 128,
        "line": "Linea_7",
        "direction": "VUELTA",
        "name": "SAN JUAN DIRECCIÓN USAC",
        "lat": 14.6302455,
        "lon": -90.5549641
    },
    {
        "id": 129,
        "line": "Linea_7",
        "direction": "VUELTA",
        "name": "ROOSEVELT DIRECCIÓN USAC",
        "lat": 14.6259977,
        "lon": -90.5589579
    },
    {
        "id": 130,
        "line": "Linea_7",
        "direction": "VUELTA",
        "name": "SAN JORGE DIRECCIÓN USAC",
        "lat": 14.61919357552522,
        "lon": -90.55642086081627
    },
    {
        "id": 131,
        "line": "Linea_7",
        "direction": "VUELTA",
        "name": "CEJUSA DIRECCIÓN USAC",
        "lat": 14.610332,
        "lon": -90.5561388
    },
    {
        "id": 132,
        "line": "Linea_7",
        "direction": "VUELTA",
        "name": "RODOLFO ROBLES DIRECCIÓN USAC",
        "lat": 14.6076897,
        "lon": -90.5580385
    },
    {
        "id": 133,
        "line": "Linea_7",
        "direction": "VUELTA",
        "name": "GRANAI DIRECCIÓN USAC",
        "lat": 14.599668273439326,
        "lon": -90.55959073595146
    }
]
